{"stations":[{"id":"","name":"Hip Hop Muzic Hub","dirbleId":56942,"country":{"code":"US","name":"United States","latitude":37.09024,"longitude":-95.712891},"streamUrl":"http://thassos.cdnstream.com:5528/stream\n","genre":"Rap","createdAt":1520391102,"updatedAt":1520391102},{"id":"","name":"Radiostorm.com - Classic Rock","dirbleId":57385,"country":{"code":"US","name":"United States","latitude":37.09024,"longitude":-95.712891},"streamUrl":"http://www.star104.net/stream/classicrock.pls","genre":"Rock","createdAt":1520391102,"updatedAt":1520391102},{"id":"","name":"Alternative - WildCat","dirbleId":37942,"country":{"code":"CA","name":"Canada","latitude":56.130366,"longitude":-106.346771},"streamUrl":"http://144.217.253.136:8488/stream","genre":"Rock","createdAt":1520391102,"updatedAt":1520391102},{"id":"","name":"Europa FM","dirbleId":14095,"country":{"code":"RU","name":"Russia","latitude":61.52401,"longitude":105.318756},"streamUrl":"http://ep128.hostingradio.ru:8030/ep128","genre":"Top 40","createdAt":1520391102,"updatedAt":1520391102},{"id":"","name":"Rock Avenue","dirbleId":38435,"country":{"code":"FR","name":"France","latitude":46.227638,"longitude":2.213749},"streamUrl":"http://streams.rock-avenue.bzh/rockavenue-128.mp3","genre":"Hard Rock","createdAt":1520391102,"updatedAt":1520391102},{"id":"","name":"Hitradio Ã–3","dirbleId":2696,"country":{"code":"AT","name":"Austria","latitude":47.516231,"longitude":14.550072},"streamUrl":"http://mp3stream7.apasf.apa.at:8000","genre":"Top 40","createdAt":1520391102,"updatedAt":1520391102},{"id":"","name":"Play Radio","dirbleId":47722,"country":{"code":"US","name":"United States","latitude":37.09024,"longitude":-95.712891},"streamUrl":"http://stream.playradio.rs01/play.aac","genre":"Pop","createdAt":1520391102,"updatedAt":1520391102},{"id":"","name":"Taska Radio","dirbleId":54328,"country":{"code":"US","name":"United States","latitude":37.09024,"longitude":-95.712891},"streamUrl":"http://79.172.209.223:7070/stream","genre":"Pop","createdAt":1520391102,"updatedAt":1520391102},{"id":"","name":"Hotmixradio Hits","dirbleId":45480,"country":{"code":"US","name":"United States","latitude":37.09024,"longitude":-95.712891},"streamUrl":"http://streamingads.hotmixradio.fm/hotmixradio-hits-128.mp3","genre":"Pop","createdAt":1520391102,"updatedAt":1520391102},{"id":"","name":"PulsRadio DANCE - Puls.fr","dirbleId":48043,"country":{"code":"US","name":"United States","latitude":37.09024,"longitude":-95.712891},"streamUrl":"http://212.83.185.113/pulsAAC64.mp3","genre":"Dance","createdAt":1520391102,"updatedAt":1520391102},{"id":"","name":"181.FM UK top 40","dirbleId":56608,"country":{"code":"US","name":"United States","latitude":37.09024,"longitude":-95.712891},"streamUrl":"http://relay.181.fm70/","genre":"Variety","createdAt":1520391102,"updatedAt":1520391102},{"id":"","name":"Prysm Trance","dirbleId":47996,"country":{"code":"US","name":"United States","latitude":37.09024,"longitude":-95.712891},"streamUrl":"http://slave3.shoutcast.com/prysmradio10-aac","genre":"Dance","createdAt":1520391102,"updatedAt":1520391102},{"id":"","name":"104.6 RTL Black","dirbleId":56505,"country":{"code":"US","name":"United States","latitude":37.09024,"longitude":-95.712891},"streamUrl":"http://stream.104.6rtl.com/rtl-black/mp3-128/radioDE/","genre":"Variety","createdAt":1520391102,"updatedAt":1520391102},{"id":"","name":"Planeta FM - House","dirbleId":47665,"country":{"code":"US","name":"United States","latitude":37.09024,"longitude":-95.712891},"streamUrl":"http://plahou-01.cdn.eurozet.pl:8208/;stream.nsv","genre":"House","createdAt":1520391102,"updatedAt":1520391102},{"id":"","name":"Country Road Radio","dirbleId":57323,"country":{"code":"GB","name":"United Kingdom","latitude":55.378051,"longitude":-3.435973},"streamUrl":"http://quasar.shoutca.st:8574","genre":"Country","createdAt":1520391102,"updatedAt":1520391102},{"id":"","name":"Metal Express ","dirbleId":57391,"country":{"code":"NO","name":"Norway","latitude":60.472024,"longitude":8.468946},"streamUrl":"http://s39.myradiostream.com:11590/listen.m3u","genre":"Hard Rock","createdAt":1520391102,"updatedAt":1520391102},{"id":"","name":"Star 104 The 80s Channel","dirbleId":57383,"country":{"code":"US","name":"United States","latitude":37.09024,"longitude":-95.712891},"streamUrl":"http://sc1.cdn.radiostorm.com/1069_128\n","genre":"Pop","createdAt":1520391102,"updatedAt":1520391102},{"id":"","name":"Bayern 3","dirbleId":12194,"country":{"code":"DE","name":"Germany","latitude":51.165691,"longitude":10.451526},"streamUrl":"http://br-br3-live.cast.addradio.de/br/br3/live/mp3/128/stream.mp3","genre":"Pop","createdAt":1520391102,"updatedAt":1520391102},{"id":"","name":"JIGGA RADIO","dirbleId":57403,"country":{"code":"BG","name":"Bulgaria","latitude":42.733883,"longitude":25.48583},"streamUrl":"http://jiggaradio.com:10080/play","genre":"Rap","createdAt":1520391102,"updatedAt":1520391102},{"id":"","name":"Motiv8 Radio FM","dirbleId":57045,"country":{"code":"GB","name":"United Kingdom","latitude":55.378051,"longitude":-3.435973},"streamUrl":"http://198.204.252.110:8008/;livestream.mp3","genre":"Trance","createdAt":1520391102,"updatedAt":1520391102}]}